City_ID,City,Lat,Lng,Max Temp,Humidity,Cloudiness,Wind Speed,Country,Date
0,acapulco,16.8634,-99.8901,24.9,57,100,0.0,MX,1679410669
1,jamestown,42.097,-79.2353,7.23,41,75,6.69,US,1679410068
2,jacksonville,30.3322,-81.6556,18.94,68,20,7.72,US,1679410655
3,oksfjord,70.2396,22.3479,-1.67,86,100,4.66,NO,1679410670
4,cherskiy,68.75,161.3,-26.11,99,100,3.37,RU,1679410671
5,naze,28.3667,129.4833,19.51,94,100,3.51,JP,1679410671
6,mataura,-46.1927,168.8643,7.01,95,100,1.15,NZ,1679410672
7,aklavik,68.2191,-135.0107,-9.0,79,100,3.6,CA,1679410672
8,barrow,71.2906,-156.7887,-18.99,78,20,5.14,US,1679410673
9,hobart,-42.8794,147.3294,13.36,81,100,2.57,AU,1679410561
10,bengkulu,-3.8004,102.2655,25.53,88,99,1.45,ID,1679410674
11,katsuura,35.1333,140.3,15.75,84,100,3.52,JP,1679410675
12,ponta do sol,32.6667,-17.1,23.17,65,48,2.11,PT,1679410675
13,bredasdorp,-34.5322,20.0403,23.39,52,20,7.82,ZA,1679410676
14,rikitea,-23.1203,-134.9692,26.14,79,48,5.86,PF,1679410676
15,hermanus,-34.4187,19.2345,21.56,74,18,6.09,ZA,1679410677
16,sitka,57.0531,-135.33,-0.06,86,0,2.57,US,1679410677
17,marrakesh,31.6315,-8.0083,27.04,22,0,5.14,MA,1679410577
18,okha,53.5739,142.9478,-2.67,97,86,2.68,RU,1679410679
19,meulaboh,4.1363,96.1285,25.74,79,100,1.33,ID,1679410679
20,goderich,43.7501,-81.7165,3.84,75,93,2.06,CA,1679410680
21,tarazona,41.9,-1.7333,20.9,34,91,3.25,ES,1679410681
22,khatanga,71.9667,102.5,-21.62,90,100,3.38,RU,1679410684
23,mahebourg,-20.4081,57.7,28.16,74,75,2.06,MU,1679410685
24,punta arenas,-53.15,-70.9167,9.06,71,75,7.2,CL,1679410686
25,busselton,-33.65,115.3333,20.81,70,100,6.35,AU,1679410687
26,isangel,-19.55,169.2667,25.46,83,94,5.7,VU,1679410688
27,codrington,-38.2667,141.9667,15.26,83,45,0.67,AU,1679410689
28,cidreira,-30.1811,-50.2056,25.7,74,28,4.25,BR,1679410690
29,elmadag,39.9208,33.2308,12.92,33,7,0.79,TR,1679410691
30,san patricio,28.017,-97.5169,21.03,89,100,6.29,US,1679410692
31,saskylakh,71.9167,114.0833,-29.53,95,26,3.97,RU,1679410693
32,castro,-24.7911,-50.0119,26.22,54,6,1.21,BR,1679410694
33,butaritari,3.0707,172.7902,27.6,76,94,7.91,KI,1679410694
34,coquimbo,-29.9533,-71.3436,18.85,88,75,1.03,CL,1679410639
35,lodja,-3.4833,23.4333,23.5,81,97,1.81,CD,1679410696
36,cabedelo,-6.9811,-34.8339,29.37,68,88,4.57,BR,1679410697
37,ushuaia,-54.8,-68.3,7.81,76,0,3.09,AR,1679410698
38,port alfred,-33.5906,26.891,21.77,70,0,3.58,ZA,1679410698
39,ahipara,-35.1667,173.1667,16.75,75,96,5.78,NZ,1679410700
40,cape town,-33.9258,18.4232,24.23,59,20,5.66,ZA,1679410666
41,kapaa,22.0752,-159.319,24.18,86,100,5.66,US,1679410701
42,alofi,-19.0595,-169.9187,23.94,94,100,1.03,NU,1679410702
43,mufumbwe,-13.6833,24.8,23.4,75,72,2.8,ZM,1679410703
44,conakry,9.538,-13.6773,26.61,71,31,5.89,GN,1679410611
45,tasiilaq,65.6145,-37.6368,-8.25,61,31,2.03,GL,1679410706
46,milkovo,54.7167,158.6167,-9.73,80,73,2.81,RU,1679410707
47,new norfolk,-42.7826,147.0587,13.17,66,100,0.22,AU,1679410708
48,koumac,-20.5667,164.2833,24.1,78,96,2.27,NC,1679410709
49,diapaga,12.0708,1.7889,36.29,25,66,2.85,BF,1679410710
50,southbridge,42.0751,-72.0334,11.28,39,33,2.24,US,1679410712
51,mount gambier,-37.8333,140.7667,13.33,93,0,1.93,AU,1679410712
52,itoman,26.1247,127.6694,23.01,92,75,7.72,JP,1679410713
53,virginia beach,36.8529,-75.978,12.04,41,0,3.09,US,1679410537
54,dutlwe,-23.9833,23.9,31.4,20,8,3.54,BW,1679410715
55,humaita,-7.5061,-63.0208,25.65,90,100,1.32,BR,1679410716
56,bluff,-46.6,168.3333,10.22,71,100,4.03,NZ,1679410717
57,mapiri,-15.25,-68.1667,21.85,86,100,0.61,BO,1679410718
58,kot diji,27.3427,68.7083,29.01,18,2,2.8,PK,1679410718
59,tuatapere,-46.1333,167.6833,9.09,83,100,1.4,NZ,1679410719
60,zheleznodorozhnyy,55.7503,38.0042,9.1,96,84,2.74,RU,1679410720
61,port elizabeth,-33.918,25.5701,25.05,64,0,13.41,ZA,1679410527
62,puerto ayora,-0.7393,-90.3518,28.98,89,33,3.58,EC,1679410721
63,pevek,69.7008,170.3133,-24.79,96,100,6.56,RU,1679410721
64,provideniya,64.3833,-173.3,-10.19,95,100,7.07,RU,1679410722
65,maningrida,-12.0667,134.2667,25.33,89,100,2.9,AU,1679410723
66,kaitangata,-46.2817,169.8464,8.31,84,100,3.04,NZ,1679410724
67,havoysund,70.9963,24.6622,-3.87,92,100,7.02,NO,1679410725
68,sakata,38.9167,139.855,10.83,62,50,1.61,JP,1679410727
69,bani,18.2833,-70.3333,28.25,51,2,5.31,DO,1679410728
70,ballina,-28.8667,153.5667,20.99,99,100,6.46,AU,1679410728
71,lamovita,44.9256,16.9072,17.4,57,59,1.33,BA,1679410729
72,yelets,52.6237,38.5017,7.02,60,100,2.88,RU,1679410730
73,dullewala,31.8359,71.4362,23.05,46,1,4.95,PK,1679410730
74,labuhan,-6.8844,112.2051,26.94,76,74,1.15,ID,1679410731
75,yellowknife,62.456,-114.3525,-23.58,77,20,5.14,CA,1679410677
76,verkhnevilyuysk,63.4453,120.3167,-32.73,100,26,1.74,RU,1679410732
77,vaini,-21.2,-175.2,24.09,100,40,1.03,TO,1679410732
78,nemuro,43.3236,145.575,1.67,85,10,3.44,JP,1679410733
79,hauterive,46.0901,3.4459,16.42,48,100,1.0,FR,1679410733
80,severo-kurilsk,50.6789,156.125,-0.09,70,100,5.59,RU,1679410734
81,caucaia,-3.7361,-38.6531,28.97,70,40,1.54,BR,1679410734
82,dingle,10.9995,122.6711,22.45,78,2,2.48,PH,1679410735
83,tecoanapa,16.5167,-98.75,28.49,44,99,0.74,MX,1679410736
84,bambous virieux,-20.3428,57.7575,28.14,74,75,2.06,MU,1679410736
85,yar-sale,66.8333,70.8333,-0.35,89,100,10.27,RU,1679410737
86,torbay,47.6666,-52.7314,2.16,71,75,14.92,CA,1679410738
87,qaanaaq,77.484,-69.3632,-13.81,63,0,4.79,GL,1679410738
88,saint-francois,46.4154,3.9054,15.69,51,0,2.06,FR,1679410739
89,mar del plata,-38.0023,-57.5575,23.79,67,96,1.79,AR,1679410739
90,olinda,-8.0089,-34.8553,23.85,88,100,1.03,BR,1679410723
91,coruripe,-10.1256,-36.1756,29.64,60,96,4.24,BR,1679410740
92,hithadhoo,-0.6,73.0833,28.12,74,100,3.65,MV,1679410741
93,roblin,51.23,-101.3565,-15.16,92,85,2.64,CA,1679410742
94,longyearbyen,78.2186,15.6401,-17.09,55,40,3.6,SJ,1679410743
95,saint george,37.1041,-113.5841,6.33,89,100,1.54,US,1679410744
96,abnub,27.2696,31.1511,22.12,25,0,5.51,EG,1679410745
97,iquique,-20.2208,-70.1431,26.02,68,21,2.58,CL,1679410741
98,newport,51.5877,-2.9984,14.08,75,99,8.1,GB,1679410385
99,ostrovnoy,68.0531,39.5131,-7.09,82,33,7.54,RU,1679410747
100,quatre cocos,-20.2078,57.7625,28.06,79,91,2.74,MU,1679410511
101,carnarvon,-24.8667,113.6333,23.96,82,16,8.38,AU,1679410551
102,devils lake,48.1128,-98.8651,-11.14,75,40,4.47,US,1679410621
103,batsfjord,70.6345,29.7185,-4.04,93,100,9.26,NO,1679410753
104,okahandja,-21.9833,16.9167,32.68,16,37,1.65,NA,1679410754
105,norman wells,65.282,-126.8329,-9.98,73,20,4.63,CA,1679410755
106,tallahassee,30.4383,-84.2807,15.18,58,0,3.6,US,1679410581
107,asekeyevo,53.5742,52.7972,-2.57,97,74,2.22,RU,1679410756
108,severodvinsk,64.5635,39.8302,-1.94,87,100,0.8,RU,1679410757
109,ribeira grande,38.5167,-28.7,17.22,88,75,5.14,PT,1679410758
110,usinsk,65.9939,57.5281,-7.34,89,82,3.74,RU,1679410758
111,faanui,-16.4833,-151.75,27.18,78,24,5.65,PF,1679410759
112,lebu,-37.6167,-73.65,16.19,61,29,6.08,CL,1679410095
113,camacha,33.0833,-16.3333,17.68,63,20,6.17,PT,1679410760
114,mopipi,-21.1833,24.8833,32.8,15,25,3.96,BW,1679410761
115,hovd,48.0056,91.6419,-9.82,42,1,1.17,MN,1679410762
116,arraial do cabo,-22.9661,-42.0278,30.98,70,0,4.63,BR,1679410501
117,tabuk,17.4189,121.4443,22.64,86,55,1.17,PH,1679410765
118,port-gentil,-0.7193,8.7815,24.98,94,75,6.17,GA,1679410766
119,palmer,42.1584,-72.3287,10.69,39,32,1.34,US,1679410729
120,derzhavinsk,51.1,66.3167,-9.8,89,29,1.96,KZ,1679410768
121,adrar,20.5022,-10.0711,32.17,8,0,3.0,MR,1679410769
122,luderitz,-26.6481,15.1594,22.43,56,0,9.37,NA,1679410770
123,chokurdakh,70.6333,147.9167,-25.67,95,100,8.51,RU,1679410771
124,gisborne,-38.6533,178.0042,13.29,86,81,3.53,NZ,1679410772
125,kruisfontein,-34.0033,24.7314,23.27,53,0,8.58,ZA,1679410773
126,carepa,7.7585,-76.6525,27.88,78,40,3.6,CO,1679410774
127,antanifotsy,-19.65,47.3167,16.33,99,100,1.96,MG,1679410775
128,inhambane,-23.865,35.3833,25.81,73,37,3.64,MZ,1679410776
129,urbano santos,-3.2078,-43.4036,25.88,86,94,1.22,BR,1679410778
130,georgetown,5.4112,100.3354,27.96,89,20,1.03,MY,1679410304
131,benavente,42.0025,-5.6783,18.14,28,2,0.45,ES,1679410779
132,filimonovo,56.2011,95.4611,-15.41,86,27,1.78,RU,1679410779
133,chuy,-33.6971,-53.4616,22.75,49,95,4.68,UY,1679410780
134,nalut,30.3333,10.85,26.07,25,94,6.15,LY,1679410781
135,upernavik,72.7868,-56.1549,-25.35,93,85,0.99,GL,1679410782
136,port macquarie,-31.4333,152.9167,18.83,83,100,1.9,AU,1679410782
137,salvador,13.8333,-88.9167,26.14,52,5,1.88,SV,1679410565
138,selaphum,16.0299,103.9383,28.95,34,0,3.84,TH,1679410784
139,namatanai,-3.6667,152.4333,25.52,75,5,1.91,PG,1679410784
140,saint-philippe,-21.3585,55.7679,26.77,84,60,3.29,RE,1679410785
141,natal,-5.795,-35.2094,31.36,70,75,3.6,BR,1679410786
142,bilibino,68.0546,166.4372,-28.49,100,100,2.28,RU,1679410786
143,lagos,6.5833,3.75,33.18,52,97,4.44,NG,1679410307
144,san joaquin,37.9333,-121.3011,9.54,88,100,1.54,US,1679410788
145,aswan,24.0934,32.907,25.61,23,0,2.57,EG,1679410789
146,kiunga,-6.1219,141.2906,22.72,99,89,0.84,PG,1679410789
147,batagay-alyta,67.8006,130.4114,-32.72,97,97,2.83,RU,1679410790
148,hamilton,39.1834,-84.5333,9.44,43,75,4.12,US,1679410680
149,chapais,49.7834,-74.8492,-15.12,80,83,3.07,CA,1679410790
150,tuktoyaktuk,69.4541,-133.0374,-10.0,85,75,4.63,CA,1679410791
151,saint-augustin,51.226,-58.6502,-0.4,83,100,5.91,CA,1679410791
152,morant bay,17.8815,-76.4093,28.73,69,9,5.05,JM,1679410792
153,poum,-20.2333,164.0167,25.85,73,100,4.86,NC,1679410793
154,salalah,17.0151,54.0924,26.21,79,25,5.67,OM,1679410793
155,atuona,-9.8,-139.0333,26.83,66,8,6.08,PF,1679410794
156,byron bay,-28.65,153.6167,20.95,82,100,6.28,AU,1679410630
157,tahe,52.3333,124.7333,-2.49,94,100,3.02,CN,1679410795
158,coihaique,-45.5752,-72.0662,7.34,87,40,2.06,CL,1679410514
159,vesyegonsk,58.664,37.2604,1.66,99,100,3.81,RU,1679410797
160,jimo,36.3897,120.4622,9.88,66,100,2.0,CN,1679410799
161,hasaki,35.7333,140.8333,13.45,85,100,2.54,JP,1679410800
162,moratuwa,6.773,79.8816,29.01,81,21,1.71,LK,1679410802
163,dikson,73.5069,80.5464,-9.9,91,100,5.69,RU,1679410818
164,svetlaya,46.5389,138.3297,0.52,88,25,2.08,RU,1679410827
165,pacific grove,36.6177,-121.9166,9.12,87,100,3.58,US,1679410837
166,mersing,2.4312,103.8405,25.95,94,20,0.51,MY,1679410847
167,sterlibashevo,53.4376,55.2578,-4.12,92,55,2.41,RU,1679410849
168,avarua,-21.2078,-159.775,27.03,89,20,1.54,CK,1679410850
169,hilo,19.7297,-155.09,21.45,95,100,2.57,US,1679410850
170,encarnacion,-27.3333,-55.9,33.02,49,0,2.06,PY,1679410851
171,lanzhou,36.0564,103.7922,6.82,33,100,3.28,CN,1679410852
172,vao,-22.6667,167.4833,24.89,70,4,7.05,NC,1679410852
173,novovasylivka,46.8315,35.7536,13.35,34,87,0.93,UA,1679410854
174,albany,42.6001,-73.9662,9.38,46,45,1.34,US,1679410776
175,sept-iles,50.2001,-66.3821,-1.08,54,20,3.6,CA,1679410622
176,sibolga,1.7427,98.7792,26.11,86,99,0.48,ID,1679410856
177,te anau,-45.4167,167.7167,5.65,87,88,0.72,NZ,1679410856
178,richards bay,-28.783,32.0377,27.79,70,13,5.94,ZA,1679410857
179,aitape,-3.1374,142.3475,26.07,87,100,2.32,PG,1679410858
180,ixtapa,20.7,-105.2,24.01,66,0,1.2,MX,1679410794
181,kodiak,57.79,-152.4072,1.73,60,0,5.66,US,1679410572
182,fort nelson,58.8053,-122.7002,-7.23,79,20,2.57,CA,1679410861
183,husavik,66.0449,-17.3389,-2.86,81,100,12.98,IS,1679410862
184,college,64.8569,-147.8028,-14.4,83,40,0.0,US,1679410864
185,atyrau,47.1167,51.8833,14.01,35,0,5.0,KZ,1679410745
186,shache,38.4167,77.2406,11.51,17,5,3.49,CN,1679410867
187,morehead,37.2711,-87.1764,7.7,44,100,2.57,US,1679410873
188,nouakchott,18.0858,-15.9785,25.96,65,7,7.41,MR,1679410874
189,moerai,-22.4333,-151.3333,26.89,76,5,4.22,PF,1679410878
190,dom pedrito,-30.9828,-54.6731,25.71,68,78,2.74,BR,1679410886
191,heilbron,-27.2812,27.9709,28.22,23,78,2.7,ZA,1679410889
192,niquelandia,-14.4739,-48.4597,20.78,93,100,0.74,BR,1679410890
193,khani,41.9563,42.9566,5.76,97,100,1.3,GE,1679410893
194,grindavik,63.8424,-22.4338,2.97,69,75,12.86,IS,1679410894
195,aracuai,-16.8497,-42.0703,35.05,32,67,0.63,BR,1679410897
196,chernyshevskiy,63.0128,112.4714,-14.66,95,99,3.13,RU,1679410900
197,kralendijk,12.15,-68.2667,25.5,78,47,9.77,BQ,1679410901
198,henties bay,-22.116,14.2845,19.14,72,1,6.32,NA,1679410902
199,vila velha,-20.3297,-40.2925,31.97,60,20,5.14,BR,1679410770
200,santa isabel do rio negro,-0.4139,-65.0192,31.61,46,65,2.96,BR,1679410903
201,iqaluit,63.7506,-68.5145,-25.15,69,0,7.72,CA,1679410905
202,bandarbeyla,9.4942,50.8122,28.07,79,76,5.87,SO,1679410905
203,lucapa,-8.4192,20.7447,24.34,73,55,1.97,AO,1679410906
204,bethel,41.3712,-73.414,11.9,40,0,3.6,US,1679410710
205,gao,16.6362,1.637,35.22,8,0,5.25,ML,1679410907
206,cayenne,4.9333,-52.3333,29.02,70,75,6.69,GF,1679410908
207,kavieng,-2.5744,150.7967,27.4,69,7,2.5,PG,1679410909
208,bonthe,7.5264,-12.505,29.96,60,14,5.75,SL,1679410909
209,okhotsk,59.3833,143.3,-18.87,77,100,4.79,RU,1679410910
210,pangkalanbuun,-2.6833,111.6167,24.0,93,85,0.82,ID,1679410911
211,estelle,29.8458,-90.1067,16.67,60,11,1.79,US,1679410913
212,bubaque,11.2833,-15.8333,25.18,68,0,5.38,GW,1679410914
213,maceio,-9.6658,-35.7353,23.69,100,100,3.6,BR,1679410828
214,guerrero negro,27.9769,-114.0611,16.59,79,94,3.12,MX,1679410915
215,makakilo city,21.3469,-158.0858,23.34,86,100,0.0,US,1679410890
216,gambo,4.6482,22.2633,33.29,33,62,2.41,CF,1679410829
217,wilmington,34.2257,-77.9447,11.95,44,0,4.02,US,1679410261
218,emerald,-23.5333,148.1667,21.3,71,0,5.6,AU,1679410917
219,tucuman,-26.8241,-65.2226,30.0,54,0,1.03,AR,1679410918
220,port lavaca,28.615,-96.6261,22.03,84,100,5.14,US,1679410844
221,rock springs,41.5875,-109.2029,-2.31,79,75,3.6,US,1679410919
222,deputatskiy,69.3,139.9,-27.16,85,100,4.68,RU,1679410920
223,woodward,36.4337,-99.3904,11.65,71,0,11.32,US,1679410796
224,sangar,63.9242,127.4739,-39.06,100,33,0.67,RU,1679410921
225,esperance,-33.8667,121.9,17.96,79,99,9.01,AU,1679410922
226,margate,51.3813,1.3862,12.15,75,100,4.02,GB,1679410922
227,bogorodskoye,56.55,37.8833,2.32,97,85,4.07,RU,1679410923
228,narsaq,60.9167,-46.05,5.12,72,57,4.37,GL,1679410924
229,nema,57.5067,50.5011,1.7,98,100,4.83,RU,1679410924
230,ulaangom,49.9811,92.0667,-18.88,86,100,1.98,MN,1679410925
231,guben,51.9499,14.7145,11.83,78,98,2.77,DE,1679410926
232,coahuayana,18.7333,-103.6833,27.57,36,0,1.72,MX,1679410926
233,mingyue,43.1069,128.9217,7.66,54,99,1.11,CN,1679410927
234,sivaki,52.6333,126.75,-1.36,97,100,3.27,RU,1679410928
235,calabozo,8.9242,-67.4293,31.68,41,84,5.05,VE,1679410928
236,yumen,40.2833,97.2,4.78,22,7,3.98,CN,1679410929
237,abomey,7.1829,1.9912,36.64,30,90,2.71,BJ,1679410930
238,mackenzie,55.2999,-123.1698,-12.88,92,0,0.0,CA,1679410931
239,ilulissat,69.2167,-51.1,-6.99,68,75,2.06,GL,1679410931
240,kandrian,-6.2167,149.55,24.95,89,52,1.54,PG,1679410932
241,brisbane,-27.4679,153.0281,23.1,95,100,2.57,AU,1679410838
242,lavrentiya,65.5833,-171.0,-8.68,92,100,7.18,RU,1679410933
243,san andres,12.5847,-81.7006,28.01,74,75,6.69,CO,1679410453
244,zaltan,32.947,11.8665,17.0,73,17,11.14,LY,1679410938
245,dunedin,-45.8742,170.5036,8.76,85,100,6.35,NZ,1679410938
246,olafsvik,64.8945,-23.7142,-0.19,59,100,12.22,IS,1679410940
247,toba,34.4833,136.85,13.0,91,100,0.2,JP,1679410942
248,mezen,65.8522,44.24,-8.03,98,68,1.0,RU,1679410942
249,mitsamiouli,-11.3847,43.2844,28.2,74,98,1.83,KM,1679410944
250,victoria,22.2855,114.1577,25.21,86,100,5.36,HK,1679410892
251,port hedland,-20.3167,118.5667,31.03,74,64,6.17,AU,1679410945
252,taltal,-25.4,-70.4833,23.09,73,3,2.17,CL,1679410529
253,san jose,37.3394,-121.895,9.56,87,100,3.09,US,1679410659
254,geraldton,-28.7667,114.6,22.23,88,100,2.06,AU,1679410514
255,santa rosa,14.3122,121.1114,27.28,78,0,2.46,PH,1679410946
256,mazatlan,23.2167,-106.4167,21.35,58,1,1.2,MX,1679410789
257,san giovanni in fiore,39.2633,16.6996,10.2,94,96,0.98,IT,1679410947
258,carauari,-4.8828,-66.8958,32.56,52,31,1.23,BR,1679410948
259,manacapuru,-3.2997,-60.6206,30.52,57,55,2.19,BR,1679410948
260,nizhniy tsasuchey,50.5167,115.1333,-2.68,91,100,8.55,RU,1679410949
261,thompson,55.7435,-97.8558,-21.91,84,20,2.06,CA,1679410732
262,rundu,-17.9333,19.7667,28.6,39,99,3.35,NA,1679410446
263,souillac,-20.5167,57.5167,28.21,74,75,2.06,MU,1679410951
264,farsund,58.0948,6.8047,4.97,88,100,7.84,NO,1679410951
265,malindi,-3.2175,40.1191,29.09,65,75,8.23,KE,1679410952
266,mestia,43.0458,42.7278,4.43,93,72,0.71,GE,1679410953
267,doha,25.2867,51.5333,25.17,44,0,11.32,QA,1679410799
268,mount isa,-20.7333,139.5,24.87,78,99,0.0,AU,1679410905
269,pyapon,16.2833,95.6833,27.54,55,0,3.53,MM,1679410954
270,camocim,-2.9022,-40.8411,26.81,79,23,2.13,BR,1679410955
271,lorengau,-2.0226,147.2712,27.46,77,67,3.75,PG,1679410955
272,mantua,45.1667,10.7833,20.19,53,66,0.89,IT,1679410954
273,talnakh,69.4865,88.3972,-8.77,92,100,9.3,RU,1679410956
274,jacareacanga,-6.2222,-57.7528,23.95,96,86,0.47,BR,1679410957
275,mackay,-21.15,149.2,23.16,72,43,7.96,AU,1679410960
276,kota kinabalu,5.9749,116.0724,24.99,94,20,0.51,MY,1679410961
277,tshane,-24.0196,21.8684,32.11,17,94,2.67,BW,1679410961
278,simi,9.5667,-12.35,39.25,22,5,1.32,SL,1679410962
279,aneho,6.2333,1.6,33.11,63,99,6.93,TG,1679410890
280,laurel,39.0993,-76.8483,13.37,33,0,0.89,US,1679410696
281,comodoro rivadavia,-45.8667,-67.5,17.92,36,0,3.09,AR,1679410963
282,kamenka,51.3223,42.7678,10.12,68,89,2.15,RU,1679410964
283,paamiut,61.994,-49.6678,-4.08,76,27,7.38,GL,1679410965
284,port lincoln,-34.7333,135.8667,16.74,83,0,6.05,AU,1679410965
285,palauig,15.435,119.9045,25.17,79,3,1.86,PH,1679410966
286,petatlan,17.5167,-101.2667,29.31,25,0,0.38,MX,1679410946
287,mao,39.8885,4.2658,16.31,72,40,3.6,ES,1679410565
288,novyy urengoy,66.0833,76.6333,-2.04,95,100,11.31,RU,1679410967
289,baghdad,33.3406,44.4009,14.95,82,75,8.23,IQ,1679410808
290,monroe,43.1501,-77.6831,9.39,43,20,8.75,US,1679410968
291,mirante do paranapanema,-22.2919,-51.9064,27.35,67,2,2.33,BR,1679410968
292,airai,-8.9266,125.4092,15.69,92,100,0.68,TL,1679410969
293,bukachacha,52.9833,116.9167,-9.83,80,100,6.0,RU,1679410970
294,fayetteville,35.0527,-78.8784,11.6,49,0,0.45,US,1679410138
295,warrnambool,-38.3833,142.4833,12.41,81,42,1.34,AU,1679410632
296,rawson,-43.3002,-65.1023,21.63,36,0,6.44,AR,1679410908
297,tucumcari,35.1717,-103.725,10.91,43,0,9.77,US,1679410971
298,hatillo,18.4863,-66.8254,30.21,72,0,4.92,PR,1679410972
299,rocha,-34.4833,-54.3333,23.24,44,53,4.48,UY,1679410972
300,saldanha,-33.0117,17.9442,19.41,77,11,4.14,ZA,1679410973
301,shestakovo,56.4915,103.96,-23.45,100,87,0.22,RU,1679410974
302,aksu,41.1231,80.2644,10.33,20,0,3.11,CN,1679410975
303,calvia,39.5657,2.5062,18.28,68,100,3.13,ES,1679410975
304,hobyo,5.3505,48.5268,28.72,73,13,6.19,SO,1679410976
305,taizhou,32.4933,119.9106,12.97,97,100,2.01,CN,1679410832
306,benguela,-12.5763,13.4055,26.99,76,100,4.08,AO,1679410840
307,kupang,-10.1667,123.5833,25.62,85,86,2.6,ID,1679410977
308,clyde river,70.4692,-68.5914,-22.87,70,0,3.6,CA,1679410978
309,amboasary,-25.0333,46.3833,25.03,80,53,6.34,MG,1679410979
310,iquitos,-3.7481,-73.2472,28.02,94,20,1.54,PE,1679410980
311,khandbari,27.3747,87.2039,14.33,83,85,0.79,NP,1679410766
312,varzob,38.7737,68.8178,12.85,61,50,3.83,TJ,1679410982
313,ayan,56.45,138.1667,-11.56,82,100,3.71,RU,1679410983
314,aranos,-24.1333,19.1167,31.7,22,98,2.85,NA,1679410987
315,sao joao da barra,-21.6403,-41.0511,32.05,69,99,3.47,BR,1679410988
316,pervomayskoye,43.919,46.7102,15.01,53,99,1.87,RU,1679410989
317,cuamba,-14.8031,36.5372,24.16,93,73,1.17,MZ,1679410990
318,inuvik,68.3499,-133.7218,-7.44,76,75,3.6,CA,1679410991
319,amuntai,-2.4177,115.2494,23.76,97,95,0.72,ID,1679410991
320,cabo san lucas,22.8909,-109.9124,21.4,65,0,3.69,MX,1679410883
321,talcahuano,-36.7167,-73.1167,17.82,55,0,4.12,CL,1679410978
322,vyartsilya,62.1764,30.693,0.89,81,46,5.09,RU,1679410993
323,te karaka,-38.4654,177.8679,11.15,98,85,0.9,NZ,1679410994
324,lukovetskiy,64.2956,41.9211,-5.48,94,100,0.36,RU,1679410995
325,nikolskoye,59.7035,30.7861,2.94,82,7,3.06,RU,1679410996
326,san cristobal,7.7669,-72.225,21.1,43,96,2.48,VE,1679410997
327,surt,31.2089,16.5887,27.43,29,100,7.69,LY,1679410998
328,kedrovoye,57.1576,60.5698,4.69,89,100,3.9,RU,1679410999
329,broken hill,-31.95,141.4333,23.8,46,45,4.92,AU,1679411000
330,sorland,67.667,12.6934,0.92,56,100,7.27,NO,1679411001
331,harper,4.375,-7.7169,29.09,69,84,4.56,LR,1679411002
332,awjilah,29.1081,21.2869,31.55,9,100,7.37,LY,1679411003
333,constitucion,-35.3333,-72.4167,21.09,40,0,1.73,CL,1679411005
334,araouane,18.9048,-3.5265,31.59,11,0,4.21,ML,1679411007
335,galle,6.0367,80.217,27.24,78,62,0.5,LK,1679411008
336,poya,-21.35,165.15,23.27,86,39,2.06,NC,1679411009
337,putina,-15.4667,-69.4333,8.74,66,100,2.76,PE,1679411010
338,sabha,27.0377,14.4283,34.14,7,32,11.25,LY,1679411011
339,haines junction,60.7522,-137.5108,-11.03,73,43,1.03,CA,1679411011
340,tessalit,20.1986,1.0114,29.28,13,0,5.22,ML,1679411012
341,vanimo,-2.6741,141.3028,26.04,88,100,2.83,PG,1679411013
342,havre-saint-pierre,50.2334,-63.5986,-2.8,63,20,6.17,CA,1679410917
343,hami,42.8,93.45,6.3,16,51,1.34,CN,1679411014
344,gazojak,41.1875,61.4036,16.32,25,8,4.91,TM,1679411015
345,beloha,-25.1667,45.05,24.17,78,53,6.62,MG,1679411015
346,melfi,40.9965,15.6514,10.27,87,95,2.77,IT,1679411016
347,stephenville,32.2207,-98.2023,15.44,93,100,6.69,US,1679411017
348,iglesias,39.3114,8.535,19.85,62,46,4.14,IT,1679410840
349,lakselv,70.0513,24.9718,-3.1,74,40,8.75,NO,1679411018
350,nouadhibou,20.931,-17.0347,20.99,68,9,8.23,MR,1679411019
351,fortuna,40.5982,-124.1573,4.4,96,20,0.0,US,1679411019
352,oranjestad,12.524,-70.027,28.97,61,40,11.32,AW,1679411020
353,berdigestyakh,62.0989,126.6992,-35.85,100,93,0.98,RU,1679411021
354,pangody,65.85,74.4859,-1.27,96,100,10.53,RU,1679411021
355,leningradskiy,69.3833,178.4167,-22.57,97,100,11.32,RU,1679411022
356,kulhudhuffushi,6.6221,73.07,28.23,69,11,4.42,MV,1679411023
357,rocky mountain house,52.3668,-114.9188,-12.94,85,100,0.51,CA,1679410839
358,vardo,70.3705,31.1107,-5.01,100,100,12.35,NO,1679411024
359,caravelas,-17.7125,-39.2481,30.03,57,99,3.18,BR,1679411025
360,hailey,43.5196,-114.3153,-4.0,81,100,2.68,US,1679411026
361,innisfail,-17.5333,146.0333,22.88,89,100,2.61,AU,1679411026
362,presidencia roque saenz pena,-26.7852,-60.4388,34.97,35,6,3.39,AR,1679411027
363,bom jesus,-9.0744,-44.3586,31.73,46,73,2.44,BR,1679411028
364,karpushikha,57.5017,59.8956,1.53,90,100,4.91,RU,1679411029
365,laguna,38.421,-121.4238,10.03,88,100,0.45,US,1679411030
366,yantzaza,-3.8278,-78.7594,26.75,53,93,0.51,EC,1679410945
367,mayna,54.1135,47.6231,5.45,76,92,3.91,RU,1679411031
368,kahului,20.8947,-156.47,23.8,87,92,3.58,US,1679411004
369,mattru,7.6244,-11.8332,36.96,31,63,3.35,SL,1679411032
370,araceli,10.5529,119.9913,26.18,75,5,4.14,PH,1679411033
371,nieuw amsterdam,5.8833,-55.0833,30.57,68,40,2.57,SR,1679411034
372,quipile,4.7481,-74.5631,18.52,57,37,1.86,CO,1679411035
373,dawlatabad,36.4141,64.9053,19.59,38,6,4.17,AF,1679411036
374,ponta delgada,37.7333,-25.6667,17.4,88,40,5.66,PT,1679410861
375,mbandaka,0.0487,18.2603,30.12,54,86,2.2,CD,1679411037
376,sao filipe,14.8961,-24.4956,22.07,76,51,6.07,CV,1679411037
377,carbonia,39.1672,8.5222,20.53,63,36,5.35,IT,1679410579
378,kidal,18.4411,1.4078,32.43,9,0,7.53,ML,1679410921
379,soe,-9.8607,124.284,18.7,92,99,1.63,ID,1679411038
380,worland,44.0169,-107.9554,0.37,92,100,3.6,US,1679411039
381,pangai,-19.8,-174.35,26.92,78,97,3.31,TO,1679411039
382,huttwil,47.115,7.8621,16.12,55,100,1.84,CH,1679411040
383,asau,46.4333,26.4,13.51,88,100,0.66,RO,1679411040
384,hualmay,-11.0964,-77.6139,25.36,74,98,3.2,PE,1679411041
385,half moon bay,37.4636,-122.4286,9.62,92,100,5.14,US,1679411042
386,zimovniki,47.1483,42.4633,11.83,70,100,3.28,RU,1679411042
387,novaya igirma,57.1334,103.9112,-21.87,99,59,0.39,RU,1679411044
388,gamba,-2.65,10.0,29.37,64,23,3.39,GA,1679411045
389,panguna,-6.3164,155.4848,19.61,95,68,0.3,PG,1679411046
390,kyabe,9.4515,18.9449,35.26,27,64,2.08,TD,1679411047
391,kununurra,-15.7667,128.7333,25.99,89,99,2.06,AU,1679411048
392,kaabong,3.4836,34.1492,24.92,40,100,0.7,UG,1679411050
393,gushikawa,26.3544,127.8686,22.57,94,100,4.63,JP,1679411051
394,chokwe,-24.5333,32.9833,29.68,45,0,2.51,MZ,1679411053
395,ippy,6.2679,21.2247,32.73,28,84,2.83,CF,1679411055
396,voyvozh,62.892,54.9635,0.18,99,100,3.65,RU,1679411055
397,bathsheba,13.2167,-59.5167,29.34,61,20,9.77,BB,1679411057
398,siavonga,-16.5382,28.7088,28.97,52,33,1.42,ZM,1679411058
399,san quintin,30.4833,-115.95,14.3,80,100,5.03,MX,1679410856
400,barahona,18.2085,-71.1008,26.9,69,20,3.09,DO,1679410828
401,iracoubo,5.4802,-53.2011,26.63,73,22,4.44,GF,1679411062
402,nelson bay,-32.7167,152.15,21.67,82,100,2.24,AU,1679411063
403,uhlove,44.8215,33.6045,8.9,70,70,2.41,UA,1679411064
404,akdepe,42.0551,59.3788,18.05,26,15,5.81,TM,1679411066
405,rivoli,45.0715,7.5262,19.3,44,97,1.54,IT,1679411067
406,tandalti,13.0167,31.8667,32.22,5,85,5.97,SD,1679411068
407,sur,22.5667,59.5289,26.53,62,52,6.49,OM,1679411069
408,dhidhdhoo,6.8833,73.1,28.29,68,10,4.45,MV,1679411070
409,tiksi,71.6872,128.8694,-30.6,98,42,5.63,RU,1679411071
410,freire,-38.95,-72.6333,15.89,77,40,2.06,CL,1679411072
411,agirish,61.9247,63.0231,0.55,91,77,5.01,RU,1679411075
412,lubango,-14.9172,13.4925,24.92,50,40,4.63,AO,1679410839
413,jumla,29.2747,82.1838,6.4,93,100,1.09,NP,1679410909
414,galbshtadt,53.2264,78.9845,-9.88,86,77,2.79,RU,1679411077
415,lagoa,39.05,-27.9833,15.54,88,100,8.55,PT,1679411078
416,seymchan,62.8833,152.4333,-23.77,99,100,0.46,RU,1679411080
417,umm lajj,25.0213,37.2685,21.89,58,0,6.66,SA,1679411081
418,eureka,40.8021,-124.1637,5.41,96,100,3.42,US,1679410826
419,margherita,27.2833,95.6833,16.95,97,91,1.19,IN,1679411082
420,casino,-28.8667,153.05,20.87,96,100,2.13,AU,1679411083
421,evensk,61.95,159.2333,-26.39,77,4,3.67,RU,1679411084
422,chunoyar,57.4467,97.3217,-22.0,99,49,1.03,RU,1679411085
423,rio gallegos,-51.6226,-69.2181,15.03,38,0,7.72,AR,1679411086
424,sabang,5.8933,95.3214,28.29,78,100,5.38,ID,1679411086
425,severobaykalsk,55.65,109.3167,-20.98,79,88,4.27,RU,1679411087
426,midyat,37.4247,41.3393,11.71,64,100,3.59,TR,1679411087
427,anloga,5.7947,0.8973,29.83,68,81,6.82,GH,1679411088
428,igarka,67.4667,86.5833,-5.44,86,100,11.28,RU,1679411089
429,maputo,-25.9653,32.5892,29.01,64,20,5.66,MZ,1679411089
430,avera,33.194,-82.5271,12.53,37,10,4.08,US,1679411090
431,birjand,32.8663,59.2211,13.26,50,20,7.2,IR,1679411090
432,swan hill,-35.3378,143.5544,17.55,95,24,2.98,AU,1679411091
433,pathein,16.7833,94.7333,25.44,71,0,4.83,MM,1679411091
434,bodden town,19.2833,-81.25,29.0,81,20,5.66,KY,1679411092
435,la ronge,55.1001,-105.2842,-10.86,85,100,2.57,CA,1679410814
436,noumea,-22.2763,166.4572,19.99,84,8,3.67,NC,1679410822
437,kloulklubed,7.0419,134.2556,25.28,77,100,5.59,PW,1679411093
438,yining,29.0361,114.5636,14.17,97,100,0.41,CN,1679411094
439,muriti,-1.9833,32.9167,22.25,70,99,3.79,TZ,1679411094
440,barguzin,53.6167,109.6167,-15.12,85,100,2.42,RU,1679411095
441,ascension,30.2169,-90.9001,16.13,64,0,1.54,US,1679411095
442,los llanos de aridane,28.6585,-17.9182,20.07,67,20,7.72,ES,1679411096
443,dabakala,8.3667,-4.4333,36.11,30,72,2.69,CI,1679411100
444,correntina,-13.3433,-44.6367,31.62,42,76,1.32,BR,1679411100
445,dharchula,29.85,80.5333,11.97,88,94,0.92,IN,1679411101
446,puerto montt,-41.4698,-72.9447,9.46,100,100,2.06,CL,1679410992
447,hambantota,6.1241,81.1185,25.19,100,40,2.57,LK,1679411103
448,wajima,37.4,136.9,12.4,78,81,1.75,JP,1679411104
449,namibe,-15.1961,12.1522,25.4,64,42,4.49,AO,1679411105
450,pandan,14.0453,124.1694,24.27,85,1,2.76,PH,1679411106
451,hazorasp,41.3194,61.0742,14.91,24,10,5.4,UZ,1679411107
452,kapustin yar,48.5831,45.7372,14.33,38,98,2.8,RU,1679411108
453,banda aceh,5.5577,95.3222,27.07,78,100,2.52,ID,1679411110
454,trairi,-3.2778,-39.2689,28.57,69,70,2.91,BR,1679410870
455,balikpapan,-1.2675,116.8289,27.55,83,20,2.06,ID,1679410571
456,mahbubnagar,16.7333,77.9833,27.96,24,5,2.58,IN,1679411113
457,imbituba,-28.24,-48.6703,29.36,71,13,5.14,BR,1679411114
458,huarmey,-10.0681,-78.1522,26.06,75,90,3.01,PE,1679411116
459,polgardi,47.061,18.302,16.33,47,68,4.77,HU,1679411117
460,alyangula,-13.8483,136.4192,27.39,81,100,3.98,AU,1679411119
461,mogadishu,2.0371,45.3438,28.93,84,75,5.66,SO,1679410849
462,kapit,2.0167,112.9333,23.47,98,100,0.18,MY,1679411121
463,general pico,-35.6566,-63.7568,19.85,66,100,4.44,AR,1679410933
464,ambilobe,-13.2,49.05,26.66,75,100,3.87,MG,1679411124
465,male,4.1748,73.5089,28.97,79,75,3.6,MV,1679411125
466,pitimbu,-7.4706,-34.8086,29.33,70,93,6.01,BR,1679410961
467,prince rupert,54.3161,-130.3201,5.83,100,100,2.06,CA,1679410860
468,tamiahua,21.2667,-97.45,20.54,69,95,1.19,MX,1679411128
469,hohhot,40.8106,111.6522,5.16,19,0,8.0,CN,1679411129
470,ancud,-41.8697,-73.8203,13.89,56,18,0.31,CL,1679411104
471,faya,18.3851,42.4509,17.06,24,46,3.75,SA,1679411130
472,ranchi,23.35,85.3333,19.06,72,75,0.0,IN,1679411132
473,ghanzi,-21.5667,21.7833,32.15,15,1,4.4,BW,1679411133
474,imeni poliny osipenko,52.4201,136.4853,-1.76,94,100,4.91,RU,1679411134
475,ranau,5.9538,116.6641,20.93,98,100,0.21,MY,1679411136
476,bowen,-20.0167,148.2333,25.45,74,37,7.19,AU,1679411138
477,marsa matruh,31.3525,27.2453,19.11,68,0,3.6,EG,1679411138
478,balkhash,46.844,74.9804,-4.06,60,5,6.02,KZ,1679411139
479,bairiki,1.3292,172.9752,27.0,83,20,4.63,KI,1679411139
480,omboue,-1.5746,9.2618,28.73,65,99,3.37,GA,1679411140
481,klaksvik,62.2266,-6.589,7.51,98,100,12.99,FO,1679411141
482,tabas,33.5959,56.9244,24.12,23,79,5.14,IR,1679411141
483,pontal do parana,-25.6533,-48.5128,32.21,57,0,2.06,BR,1679411142
484,esso,55.9333,158.7,-11.35,94,90,1.68,RU,1679411143
485,nanortalik,60.1432,-45.2371,1.05,76,100,2.43,GL,1679411143
486,bosaso,11.2842,49.1816,28.99,89,40,5.66,SO,1679411002
487,nizhniy kuranakh,58.8353,125.4869,-27.18,100,100,0.69,RU,1679411145
488,tiznit,29.5833,-9.5,24.82,22,0,4.57,MA,1679411146
489,qaqortoq,60.7167,-46.0333,1.63,77,89,3.93,GL,1679411147
490,grand gaube,-20.0064,57.6608,28.22,72,72,0.89,MU,1679411148
491,rio grande,-32.035,-52.0986,25.06,57,86,4.52,BR,1679411148
492,mandalgovi,45.7625,106.2708,-14.9,67,5,9.3,MN,1679411149
493,saint-paul-les-dax,43.7272,-1.0516,19.52,68,96,2.06,FR,1679411150
494,oussouye,12.485,-16.5469,34.1,25,0,5.58,SN,1679411150
495,bunia,1.5667,30.25,23.88,66,93,1.22,CD,1679411151
496,pirovskoye,57.6267,92.2658,-15.7,98,92,2.1,RU,1679411152
497,hvolsvollur,63.7533,-20.2243,3.37,69,100,5.74,IS,1679411153
498,anadyr,64.75,177.4833,-18.89,77,100,19.0,RU,1679411153
499,tautira,-17.7333,-149.15,27.08,81,100,5.8,PF,1679411154
500,fairbanks,64.8378,-147.7164,-14.39,78,75,0.0,US,1679411132
501,uyemskiy,64.4743,40.8524,-3.97,63,0,1.0,RU,1679411155
502,den helder,52.9599,4.7593,10.57,93,100,12.52,NL,1679411155
503,monte carmelo,-18.7247,-47.4986,25.82,61,72,2.6,BR,1679411156
504,sulangan,11.1373,123.7228,27.15,79,1,4.84,PH,1679411156
505,goundam,16.4145,-3.6708,36.01,7,0,5.53,ML,1679411157
506,egvekinot,66.3167,-179.1667,-14.39,90,100,6.47,RU,1679411157
507,lugovoy,42.9472,72.7644,8.27,54,85,1.54,KZ,1679411158
508,sabratah,32.7933,12.4885,17.41,77,66,9.46,LY,1679411158
509,patu,-6.11,-37.6367,29.82,54,99,0.22,BR,1679411159
510,pietersburg,-23.9045,29.4688,29.47,28,20,4.12,ZA,1679411160
511,wanaka,-44.7,169.15,6.73,74,64,0.89,NZ,1679411161
512,komsomolskiy,40.4272,71.7189,14.4,54,16,0.0,UZ,1679411162
513,nantucket,41.2835,-70.0995,12.08,57,0,5.66,US,1679411033
514,abu samrah,35.3029,37.1841,15.14,57,64,6.85,SY,1679411163
515,erenhot,43.6475,111.9767,-7.46,32,0,14.5,CN,1679411165
516,peniche,39.3558,-9.3811,19.6,82,0,4.81,PT,1679411167
517,pringsewu,-5.3582,104.9744,23.49,97,87,0.65,ID,1679411171
518,sillod,20.3,75.65,26.9,27,67,3.01,IN,1679411172
519,pontianak,-0.0333,109.3333,24.99,94,20,1.54,ID,1679411173
520,novopokrovka,49.8425,36.5477,8.54,62,77,2.01,UA,1679411175
521,marawi,7.9986,124.2928,19.9,98,92,1.2,PH,1679411175
522,lata,40.1629,-8.3327,19.95,44,0,4.12,PT,1679411176
523,lac du bonnet,50.2536,-96.0612,-7.76,78,99,3.72,CA,1679411178
524,kaeo,-35.1,173.7833,15.28,80,100,3.41,NZ,1679411179
525,amapa,1.0,-52.0,27.58,65,85,1.93,BR,1679411180
526,tuy hoa,13.0833,109.3,23.31,92,92,2.38,VN,1679411181
527,burnie,-41.0667,145.9167,13.03,97,100,4.57,AU,1679411182
528,letka,59.6011,49.4232,0.72,98,100,3.76,RU,1679411182
529,gazanjyk,39.2446,55.5154,19.5,23,9,7.66,TM,1679411183
530,luwuk,-0.9516,122.7875,25.26,88,100,1.51,ID,1679411184
531,kavaratti,10.5669,72.642,27.7,61,35,4.77,IN,1679411185
532,muros,42.7762,-9.0603,17.3,76,80,3.36,ES,1679411186
533,banepa,27.6298,85.5214,13.18,82,40,1.03,NP,1679411187
534,benjamin constant,-4.3831,-70.0311,31.07,66,20,3.6,BR,1679411188
535,luau,-10.7073,22.2247,22.87,85,91,1.9,AO,1679411189
536,yauya,-8.9833,-77.3,13.11,50,100,1.45,PE,1679411191
537,parksville,49.3163,-124.3195,7.8,98,98,2.57,CA,1679410982
538,tilichiki,60.4667,166.1,-24.77,85,8,2.24,RU,1679411193
539,arona,28.0996,-16.681,19.51,70,20,9.77,ES,1679411194
540,silveira,39.1112,-9.3643,22.37,77,2,6.26,PT,1679411194
541,skelleftea,64.7507,20.9528,4.44,60,0,7.2,SE,1679411195
542,abu dhabi,24.4667,54.3667,26.06,66,0,6.17,AE,1679411196
543,hofn,64.2539,-15.2082,-0.58,88,100,17.63,IS,1679411197
544,jatiroto,-7.8833,111.1167,24.03,92,100,1.36,ID,1679411198
545,kisangani,0.5167,25.2,29.5,53,97,2.05,CD,1679411199
546,mayo,38.8876,-76.5119,13.93,39,0,1.54,US,1679411200
547,shelburne,44.0787,-80.2041,1.24,83,95,2.31,CA,1679411201
548,vostok,46.4856,135.8833,-2.38,86,6,2.4,RU,1679411201
549,san alberto,7.7611,-73.3922,29.08,62,100,1.38,CO,1679411202
550,sistranda,63.7256,8.834,2.98,59,100,5.42,NO,1679411203
551,chulman,56.8479,124.9104,-21.53,84,100,4.11,RU,1679411204
552,mlawa,53.1128,20.3841,8.94,64,81,3.46,PL,1679411204
553,pisco,-13.7,-76.2167,25.57,78,0,3.09,PE,1679411205
554,kaduy,59.2,37.15,1.03,98,100,3.51,RU,1679411206
555,aasiaat,68.7098,-52.8699,-14.29,91,100,3.42,GL,1679410995
556,port hardy,50.6996,-127.4199,7.36,93,100,0.77,CA,1679411207
557,dzerzhinsk,56.2389,43.4631,1.9,100,100,5.0,RU,1679411208
558,zhuji,29.7188,120.2423,16.04,98,92,0.96,CN,1679411208
559,mukhen,48.1,136.1,0.96,85,60,2.34,RU,1679411209
560,bozdar,27.1828,68.636,28.84,19,4,2.96,PK,1679411210
561,safaga,26.7292,33.9365,21.65,52,0,4.08,EG,1679411210
562,namsos,64.4662,11.4957,2.03,75,40,1.03,NO,1679411211
563,port moresby,-9.4431,147.1797,24.42,84,100,0.79,PG,1679411212
564,muana,-1.5283,-49.2167,26.16,84,85,1.15,BR,1679411212
565,liku,-0.7275,119.8922,23.64,93,97,0.32,ID,1679411213
566,walvis bay,-22.9575,14.5053,19.49,64,2,8.55,NA,1679411214
567,auki,-8.7676,160.7034,25.38,84,100,2.19,SB,1679411215
568,narang,31.9132,74.5176,20.98,68,43,2.29,PK,1679411142
569,konya,38.1667,32.5,11.71,36,95,1.71,TR,1679411155
570,marsh harbour,26.5412,-77.0636,21.0,61,0,5.64,BS,1679411174
